{
"type": "FeatureCollection",
"name": "Existing L2 Chargers",
"crs": { "type": "name", "properties": { "name": "urn:ogc:def:crs:OGC:1.3:CRS84" } },
"features": [
{ "type": "Feature", "properties": { "Name": "Western Tech", "description": "Stations are being installed, need to verify fees and network" }, "geometry": { "type": "Point", "coordinates": [ -90.8896439, 43.5543469 ] } },
{ "type": "Feature", "properties": { "Name": "L2 - Viroqua Food Coop", "description": "TWO stations, free, no network" }, "geometry": { "type": "Point", "coordinates": [ -90.8883567, 43.5606154 ] } },
{ "type": "Feature", "properties": { "Name": "L2 - Vernon Electric", "description": "1 station, free, no network" }, "geometry": { "type": "Point", "coordinates": [ -90.845911, 43.6686951 ] } },
{ "type": "Feature", "properties": { "Name": "L2 - Readstown Creekside", "description": "1 level 2 station, 25 cents per kwh, Zef network, site also has 1 50 kW DC fast charger" }, "geometry": { "type": "Point", "coordinates": [ -90.7686084, 43.4447359 ] } },
{ "type": "Feature", "properties": { "Name": "L2 - La Farge Organic Valley", "description": "4 stations, free, ChargePoint network" }, "geometry": { "type": "Point", "coordinates": [ -90.6360447, 43.5825535 ] } }
]
}
